{
  "junctions": [
    {
      "name": "BTP051 - Safina Plaza Junction",
      "rank": 1,
      "lat": 12.981212,
      "lon": 77.608695,
      "count": 15449,
      "cis": 59.6,
      "cis_raw": 59.6,
      "evidence_confidence": 1.0,
      "confidence_label": "High",
      "main_road_frac": 0.039,
      "heavy_vehicle_ratio": 0.013,
      "peak_hour": 10,
      "peak_concentration": 0.508,
      "traffic_window_frac": 0.804,
      "dominant_violation": "WRONG PARKING",
      "dominant_vehicle": "SCOOTER"
    },
    {
      "name": "BTP044 - Sagar Theatre Junction",
      "rank": 2,
      "lat": 12.974939,
      "lon": 77.578896,
      "count": 10549,
      "cis": 53.7,
      "cis_raw": 53.7,
      "evidence_confidence": 1.0,
      "confidence_label": "High",
      "main_road_frac": 0.024,
      "heavy_vehicle_ratio": 0.065,
      "peak_hour": 9,
      "peak_concentration": 0.404,
      "traffic_window_frac": 0.611,
      "dominant_violation": "NO PARKING",
      "dominant_vehicle": "SCOOTER"
    },
    {
      "name": "BTP040 - Elite Junction",
      "rank": 3,
      "lat": 12.976597,
      "lon": 77.576602,
      "count": 10718,
      "cis": 52.5,
      "cis_raw": 52.5,
      "evidence_confidence": 1.0,
      "confidence_label": "High",
      "main_road_frac": 0.01,
      "heavy_vehicle_ratio": 0.014,
      "peak_hour": 9,
      "peak_concentration": 0.39,
      "traffic_window_frac": 0.601,
      "dominant_violation": "NO PARKING",
      "dominant_vehicle": "SCOOTER"
    },
    {
      "name": "BTP082 - KR Market Junction",
      "rank": 4,
      "lat": 12.964424,
      "lon": 77.577241,
      "count": 11538,
      "cis": 51.0,
      "cis_raw": 51.0,
      "evidence_confidence": 1.0,
      "confidence_label": "High",
      "main_road_frac": 0.029,
      "heavy_vehicle_ratio": 0.086,
      "peak_hour": 0,
      "peak_concentration": 0.342,
      "traffic_window_frac": 0.43,
      "dominant_violation": "WRONG PARKING",
      "dominant_vehicle": "SCOOTER"
    },
    {
      "name": "BTP080 - NR Road, SP Road Junction",
      "rank": 5,
      "lat": 12.964397,
      "lon": 77.583168,
      "count": 3681,
      "cis": 50.5,
      "cis_raw": 50.5,
      "evidence_confidence": 1.0,
      "confidence_label": "High",
      "main_road_frac": 0.034,
      "heavy_vehicle_ratio": 0.111,
      "peak_hour": 10,
      "peak_concentration": 0.455,
      "traffic_window_frac": 0.672,
      "dominant_violation": "WRONG PARKING",
      "dominant_vehicle": "SCOOTER"
    },
    {
      "name": "BTP211 - Central Street Junction",
      "rank": 6,
      "lat": 12.983371,
      "lon": 77.603454,
      "count": 5388,
      "cis": 49.6,
      "cis_raw": 49.6,
      "evidence_confidence": 1.0,
      "confidence_label": "High",
      "main_road_frac": 0.058,
      "heavy_vehicle_ratio": 0.02,
      "peak_hour": 10,
      "peak_concentration": 0.355,
      "traffic_window_frac": 0.607,
      "dominant_violation": "WRONG PARKING",
      "dominant_vehicle": "PASSENGER AUTO"
    },
    {
      "name": "BTP083 - AS Char Street, Mysore Road",
      "rank": 7,
      "lat": 12.96645,
      "lon": 77.574403,
      "count": 2778,
      "cis": 48.2,
      "cis_raw": 48.2,
      "evidence_confidence": 1.0,
      "confidence_label": "High",
      "main_road_frac": 0.189,
      "heavy_vehicle_ratio": 0.26,
      "peak_hour": 0,
      "peak_concentration": 0.303,
      "traffic_window_frac": 0.42,
      "dominant_violation": "WRONG PARKING",
      "dominant_vehicle": "PASSENGER AUTO"
    },
    {
      "name": "BTP027 - Modi Bridge Junction",
      "rank": 8,
      "lat": 12.998897,
      "lon": 77.549416,
      "count": 4584,
      "cis": 48.2,
      "cis_raw": 48.2,
      "evidence_confidence": 1.0,
      "confidence_label": "High",
      "main_road_frac": 0.02,
      "heavy_vehicle_ratio": 0.007,
      "peak_hour": 7,
      "peak_concentration": 0.377,
      "traffic_window_frac": 0.608,
      "dominant_violation": "WRONG PARKING",
      "dominant_vehicle": "SCOOTER"
    },
    {
      "name": "BTP070 - Cholurpalya Junction, Magadi Road",
      "rank": 9,
      "lat": 12.973484,
      "lon": 77.550806,
      "count": 2272,
      "cis": 47.5,
      "cis_raw": 47.5,
      "evidence_confidence": 1.0,
      "confidence_label": "High",
      "main_road_frac": 0.016,
      "heavy_vehicle_ratio": 0.008,
      "peak_hour": 11,
      "peak_concentration": 0.501,
      "traffic_window_frac": 0.704,
      "dominant_violation": "NO PARKING",
      "dominant_vehicle": "SCOOTER"
    },
    {
      "name": "BTP058 - Subbanna Junction",
      "rank": 10,
      "lat": 12.979022,
      "lon": 77.578661,
      "count": 5189,
      "cis": 46.0,
      "cis_raw": 46.0,
      "evidence_confidence": 1.0,
      "confidence_label": "High",
      "main_road_frac": 0.008,
      "heavy_vehicle_ratio": 0.035,
      "peak_hour": 1,
      "peak_concentration": 0.466,
      "traffic_window_frac": 0.335,
      "dominant_violation": "NO PARKING",
      "dominant_vehicle": "CAR"
    },
    {
      "name": "BTP023 - Mahalaxmi Layout Entrance",
      "rank": 11,
      "lat": 13.008974,
      "lon": 77.549205,
      "count": 1807,
      "cis": 45.9,
      "cis_raw": 45.9,
      "evidence_confidence": 1.0,
      "confidence_label": "High",
      "main_road_frac": 0.018,
      "heavy_vehicle_ratio": 0.034,
      "peak_hour": 10,
      "peak_concentration": 0.48,
      "traffic_window_frac": 0.667,
      "dominant_violation": "WRONG PARKING",
      "dominant_vehicle": "SCOOTER"
    },
    {
      "name": "BTP038 - Mysore Bank Junction",
      "rank": 12,
      "lat": 12.97343,
      "lon": 77.581244,
      "count": 2021,
      "cis": 45.8,
      "cis_raw": 45.8,
      "evidence_confidence": 1.0,
      "confidence_label": "High",
      "main_road_frac": 0.026,
      "heavy_vehicle_ratio": 0.055,
      "peak_hour": 9,
      "peak_concentration": 0.42,
      "traffic_window_frac": 0.65,
      "dominant_violation": "WRONG PARKING",
      "dominant_vehicle": "CAR"
    },
    {
      "name": "BTP045 - Danvanthri Road Junction",
      "rank": 13,
      "lat": 12.977065,
      "lon": 77.57479,
      "count": 3181,
      "cis": 45.4,
      "cis_raw": 45.4,
      "evidence_confidence": 1.0,
      "confidence_label": "High",
      "main_road_frac": 0.038,
      "heavy_vehicle_ratio": 0.049,
      "peak_hour": 10,
      "peak_concentration": 0.331,
      "traffic_window_frac": 0.532,
      "dominant_violation": "WRONG PARKING",
      "dominant_vehicle": "CAR"
    },
    {
      "name": "BTP020 - Hosahalli Metro Station",
      "rank": 14,
      "lat": 12.974144,
      "lon": 77.545294,
      "count": 4101,
      "cis": 45.3,
      "cis_raw": 45.3,
      "evidence_confidence": 1.0,
      "confidence_label": "High",
      "main_road_frac": 0.012,
      "heavy_vehicle_ratio": 0.001,
      "peak_hour": 4,
      "peak_concentration": 0.417,
      "traffic_window_frac": 0.437,
      "dominant_violation": "WRONG PARKING",
      "dominant_vehicle": "SCOOTER"
    },
    {
      "name": "BTP057 - Anand Rao Junction",
      "rank": 15,
      "lat": 12.979395,
      "lon": 77.574388,
      "count": 3935,
      "cis": 45.2,
      "cis_raw": 45.2,
      "evidence_confidence": 1.0,
      "confidence_label": "High",
      "main_road_frac": 0.038,
      "heavy_vehicle_ratio": 0.049,
      "peak_hour": 9,
      "peak_concentration": 0.298,
      "traffic_window_frac": 0.475,
      "dominant_violation": "WRONG PARKING",
      "dominant_vehicle": "CAR"
    },
    {
      "name": "BTP226 - 33rd Cross, 11th Main, Jayanagar",
      "rank": 16,
      "lat": 12.925927,
      "lon": 77.585633,
      "count": 492,
      "cis": 45.1,
      "cis_raw": 45.1,
      "evidence_confidence": 0.997,
      "confidence_label": "High",
      "main_road_frac": 0.295,
      "heavy_vehicle_ratio": 0.008,
      "peak_hour": 8,
      "peak_concentration": 0.467,
      "traffic_window_frac": 0.73,
      "dominant_violation": "NO PARKING",
      "dominant_vehicle": "CAR"
    },
    {
      "name": "BTP104 - Medical College Circle",
      "rank": 17,
      "lat": 12.959563,
      "lon": 77.576614,
      "count": 1508,
      "cis": 44.5,
      "cis_raw": 44.5,
      "evidence_confidence": 1.0,
      "confidence_label": "High",
      "main_road_frac": 0.029,
      "heavy_vehicle_ratio": 0.33,
      "peak_hour": 11,
      "peak_concentration": 0.33,
      "traffic_window_frac": 0.516,
      "dominant_violation": "WRONG PARKING",
      "dominant_vehicle": "SCOOTER"
    },
    {
      "name": "BTP016 - 5th Main Road, RPC Layout",
      "rank": 18,
      "lat": 12.965246,
      "lon": 77.537843,
      "count": 2474,
      "cis": 44.4,
      "cis_raw": 44.4,
      "evidence_confidence": 1.0,
      "confidence_label": "High",
      "main_road_frac": 0.02,
      "heavy_vehicle_ratio": 0.016,
      "peak_hour": 11,
      "peak_concentration": 0.418,
      "traffic_window_frac": 0.529,
      "dominant_violation": "WRONG PARKING",
      "dominant_vehicle": "SCOOTER"
    },
    {
      "name": "BTP043 - Upparpet Junction",
      "rank": 19,
      "lat": 12.97114,
      "lon": 77.575572,
      "count": 1786,
      "cis": 43.9,
      "cis_raw": 43.9,
      "evidence_confidence": 1.0,
      "confidence_label": "High",
      "main_road_frac": 0.011,
      "heavy_vehicle_ratio": 0.142,
      "peak_hour": 8,
      "peak_concentration": 0.356,
      "traffic_window_frac": 0.569,
      "dominant_violation": "WRONG PARKING",
      "dominant_vehicle": "SCOOTER"
    },
    {
      "name": "BTP026 - 1st Block Junction, Rajajinagar",
      "rank": 20,
      "lat": 13.002439,
      "lon": 77.550094,
      "count": 1086,
      "cis": 43.4,
      "cis_raw": 43.4,
      "evidence_confidence": 1.0,
      "confidence_label": "High",
      "main_road_frac": 0.001,
      "heavy_vehicle_ratio": 0.011,
      "peak_hour": 7,
      "peak_concentration": 0.549,
      "traffic_window_frac": 0.661,
      "dominant_violation": "WRONG PARKING",
      "dominant_vehicle": "CAR"
    },
    {
      "name": "BTP042 - Minsk Square Junction (CTO)",
      "rank": 21,
      "lat": 12.981176,
      "lon": 77.598457,
      "count": 2044,
      "cis": 43.4,
      "cis_raw": 43.4,
      "evidence_confidence": 1.0,
      "confidence_label": "High",
      "main_road_frac": 0.005,
      "heavy_vehicle_ratio": 0.001,
      "peak_hour": 4,
      "peak_concentration": 0.542,
      "traffic_window_frac": 0.448,
      "dominant_violation": "WRONG PARKING",
      "dominant_vehicle": "SCOOTER"
    },
    {
      "name": "BTP182 - 19th Main Junction, Rajajinagar",
      "rank": 22,
      "lat": 12.999007,
      "lon": 77.550852,
      "count": 1390,
      "cis": 43.1,
      "cis_raw": 43.1,
      "evidence_confidence": 1.0,
      "confidence_label": "High",
      "main_road_frac": 0.009,
      "heavy_vehicle_ratio": 0.008,
      "peak_hour": 8,
      "peak_concentration": 0.501,
      "traffic_window_frac": 0.586,
      "dominant_violation": "WRONG PARKING",
      "dominant_vehicle": "CAR"
    },
    {
      "name": "BTP032 - Windsor Circle",
      "rank": 23,
      "lat": 12.993088,
      "lon": 77.588184,
      "count": 2749,
      "cis": 42.9,
      "cis_raw": 42.9,
      "evidence_confidence": 1.0,
      "confidence_label": "High",
      "main_road_frac": 0.032,
      "heavy_vehicle_ratio": 0.006,
      "peak_hour": 3,
      "peak_concentration": 0.487,
      "traffic_window_frac": 0.323,
      "dominant_violation": "WRONG PARKING",
      "dominant_vehicle": "SCOOTER"
    },
    {
      "name": "BTP135 - UCO Bank Junction",
      "rank": 24,
      "lat": 12.935622,
      "lon": 77.614978,
      "count": 1112,
      "cis": 42.6,
      "cis_raw": 42.6,
      "evidence_confidence": 1.0,
      "confidence_label": "High",
      "main_road_frac": 0.076,
      "heavy_vehicle_ratio": 0.004,
      "peak_hour": 12,
      "peak_concentration": 0.33,
      "traffic_window_frac": 0.694,
      "dominant_violation": "NO PARKING",
      "dominant_vehicle": "SCOOTER"
    },
    {
      "name": "BTP001 - 10th Cross, Dr. Rajkumar Road",
      "rank": 25,
      "lat": 13.007811,
      "lon": 77.554653,
      "count": 2812,
      "cis": 42.6,
      "cis_raw": 42.6,
      "evidence_confidence": 1.0,
      "confidence_label": "High",
      "main_road_frac": 0.002,
      "heavy_vehicle_ratio": 0.005,
      "peak_hour": 10,
      "peak_concentration": 0.331,
      "traffic_window_frac": 0.468,
      "dominant_violation": "WRONG PARKING",
      "dominant_vehicle": "CAR"
    },
    {
      "name": "BTP063 - Siddalingaiah Circle",
      "rank": 26,
      "lat": 12.971527,
      "lon": 77.596703,
      "count": 1060,
      "cis": 42.4,
      "cis_raw": 42.4,
      "evidence_confidence": 1.0,
      "confidence_label": "High",
      "main_road_frac": 0.046,
      "heavy_vehicle_ratio": 0.006,
      "peak_hour": 11,
      "peak_concentration": 0.414,
      "traffic_window_frac": 0.664,
      "dominant_violation": "NO PARKING",
      "dominant_vehicle": "CAR"
    },
    {
      "name": "BTP048 - Shanthala Junction",
      "rank": 27,
      "lat": 12.976961,
      "lon": 77.570755,
      "count": 1593,
      "cis": 42.3,
      "cis_raw": 42.3,
      "evidence_confidence": 1.0,
      "confidence_label": "High",
      "main_road_frac": 0.176,
      "heavy_vehicle_ratio": 0.009,
      "peak_hour": 7,
      "peak_concentration": 0.301,
      "traffic_window_frac": 0.435,
      "dominant_violation": "NO PARKING",
      "dominant_vehicle": "PASSENGER AUTO"
    },
    {
      "name": "BTP208 - Havanur Circle",
      "rank": 28,
      "lat": 12.987954,
      "lon": 77.537556,
      "count": 812,
      "cis": 42.1,
      "cis_raw": 42.1,
      "evidence_confidence": 1.0,
      "confidence_label": "High",
      "main_road_frac": 0.068,
      "heavy_vehicle_ratio": 0.015,
      "peak_hour": 10,
      "peak_concentration": 0.475,
      "traffic_window_frac": 0.643,
      "dominant_violation": "WRONG PARKING",
      "dominant_vehicle": "CAR"
    },
    {
      "name": "BTP205 - Modi Hospital Junction",
      "rank": 29,
      "lat": 12.997488,
      "lon": 77.546954,
      "count": 1045,
      "cis": 41.9,
      "cis_raw": 41.9,
      "evidence_confidence": 1.0,
      "confidence_label": "High",
      "main_road_frac": 0.067,
      "heavy_vehicle_ratio": 0.013,
      "peak_hour": 10,
      "peak_concentration": 0.396,
      "traffic_window_frac": 0.618,
      "dominant_violation": "WRONG PARKING",
      "dominant_vehicle": "CAR"
    },
    {
      "name": "BTP008 - Navarang Theatre",
      "rank": 30,
      "lat": 12.998492,
      "lon": 77.553093,
      "count": 1190,
      "cis": 41.7,
      "cis_raw": 41.7,
      "evidence_confidence": 1.0,
      "confidence_label": "High",
      "main_road_frac": 0.004,
      "heavy_vehicle_ratio": 0.007,
      "peak_hour": 8,
      "peak_concentration": 0.403,
      "traffic_window_frac": 0.639,
      "dominant_violation": "WRONG PARKING",
      "dominant_vehicle": "SCOOTER"
    },
    {
      "name": "BTP010 - Rajajinagar Entrance",
      "rank": 31,
      "lat": 12.982262,
      "lon": 77.560081,
      "count": 957,
      "cis": 41.5,
      "cis_raw": 41.5,
      "evidence_confidence": 1.0,
      "confidence_label": "High",
      "main_road_frac": 0.052,
      "heavy_vehicle_ratio": 0.038,
      "peak_hour": 11,
      "peak_concentration": 0.423,
      "traffic_window_frac": 0.597,
      "dominant_violation": "NO PARKING",
      "dominant_vehicle": "SCOOTER"
    },
    {
      "name": "BTP108 - Tagore Park Junction",
      "rank": 32,
      "lat": 12.943901,
      "lon": 77.571431,
      "count": 1801,
      "cis": 41.5,
      "cis_raw": 41.5,
      "evidence_confidence": 1.0,
      "confidence_label": "High",
      "main_road_frac": 0.044,
      "heavy_vehicle_ratio": 0.014,
      "peak_hour": 11,
      "peak_concentration": 0.344,
      "traffic_window_frac": 0.476,
      "dominant_violation": "WRONG PARKING",
      "dominant_vehicle": "SCOOTER"
    },
    {
      "name": "BTP074 - Leprosy Hospital Junction",
      "rank": 33,
      "lat": 12.975847,
      "lon": 77.561796,
      "count": 1047,
      "cis": 41.4,
      "cis_raw": 41.4,
      "evidence_confidence": 1.0,
      "confidence_label": "High",
      "main_road_frac": 0.071,
      "heavy_vehicle_ratio": 0.064,
      "peak_hour": 11,
      "peak_concentration": 0.396,
      "traffic_window_frac": 0.539,
      "dominant_violation": "WRONG PARKING",
      "dominant_vehicle": "SCOOTER"
    },
    {
      "name": "BTP022 - Marenahalli Junction, Vijayanagar",
      "rank": 34,
      "lat": 12.96878,
      "lon": 77.536735,
      "count": 1157,
      "cis": 41.4,
      "cis_raw": 41.4,
      "evidence_confidence": 1.0,
      "confidence_label": "High",
      "main_road_frac": 0.029,
      "heavy_vehicle_ratio": 0.009,
      "peak_hour": 10,
      "peak_concentration": 0.425,
      "traffic_window_frac": 0.577,
      "dominant_violation": "WRONG PARKING",
      "dominant_vehicle": "SCOOTER"
    },
    {
      "name": "BTP148 - 17th Main, Doopanahalli Bus Stop",
      "rank": 35,
      "lat": 12.963664,
      "lon": 77.642234,
      "count": 745,
      "cis": 41.1,
      "cis_raw": 41.1,
      "evidence_confidence": 1.0,
      "confidence_label": "High",
      "main_road_frac": 0.242,
      "heavy_vehicle_ratio": 0.016,
      "peak_hour": 8,
      "peak_concentration": 0.323,
      "traffic_window_frac": 0.507,
      "dominant_violation": "NO PARKING",
      "dominant_vehicle": "CAR"
    },
    {
      "name": "BTP028 - Vijayanagar Bus Stand Junction",
      "rank": 36,
      "lat": 12.972569,
      "lon": 77.538061,
      "count": 754,
      "cis": 41.1,
      "cis_raw": 41.1,
      "evidence_confidence": 1.0,
      "confidence_label": "High",
      "main_road_frac": 0.02,
      "heavy_vehicle_ratio": 0.019,
      "peak_hour": 10,
      "peak_concentration": 0.493,
      "traffic_window_frac": 0.647,
      "dominant_violation": "WRONG PARKING",
      "dominant_vehicle": "CAR"
    },
    {
      "name": "BTP054 - Shivananda Circle",
      "rank": 37,
      "lat": 12.986267,
      "lon": 77.578863,
      "count": 751,
      "cis": 41.0,
      "cis_raw": 41.0,
      "evidence_confidence": 1.0,
      "confidence_label": "High",
      "main_road_frac": 0.04,
      "heavy_vehicle_ratio": 0.017,
      "peak_hour": 7,
      "peak_concentration": 0.419,
      "traffic_window_frac": 0.686,
      "dominant_violation": "NO PARKING",
      "dominant_vehicle": "CAR"
    },
    {
      "name": "BTP095 - Satellite Bus Stand, Mysore Road",
      "rank": 38,
      "lat": 12.953825,
      "lon": 77.543398,
      "count": 775,
      "cis": 41.0,
      "cis_raw": 41.0,
      "evidence_confidence": 1.0,
      "confidence_label": "High",
      "main_road_frac": 0.092,
      "heavy_vehicle_ratio": 0.019,
      "peak_hour": 10,
      "peak_concentration": 0.488,
      "traffic_window_frac": 0.541,
      "dominant_violation": "WRONG PARKING",
      "dominant_vehicle": "SCOOTER"
    },
    {
      "name": "BTP130 - GD Mara Junction",
      "rank": 39,
      "lat": 12.90807,
      "lon": 77.600817,
      "count": 631,
      "cis": 40.9,
      "cis_raw": 40.9,
      "evidence_confidence": 1.0,
      "confidence_label": "High",
      "main_road_frac": 0.032,
      "heavy_vehicle_ratio": 0.011,
      "peak_hour": 11,
      "peak_concentration": 0.525,
      "traffic_window_frac": 0.661,
      "dominant_violation": "NO PARKING",
      "dominant_vehicle": "SCOOTER"
    },
    {
      "name": "BTP061 - Bhashyam Circle",
      "rank": 40,
      "lat": 12.985184,
      "lon": 77.553923,
      "count": 1030,
      "cis": 40.6,
      "cis_raw": 40.6,
      "evidence_confidence": 1.0,
      "confidence_label": "High",
      "main_road_frac": 0.005,
      "heavy_vehicle_ratio": 0.02,
      "peak_hour": 7,
      "peak_concentration": 0.394,
      "traffic_window_frac": 0.611,
      "dominant_violation": "NO PARKING",
      "dominant_vehicle": "SCOOTER"
    },
    {
      "name": "BTP069 - MC Circle",
      "rank": 41,
      "lat": 12.974621,
      "lon": 77.547518,
      "count": 1075,
      "cis": 40.4,
      "cis_raw": 40.4,
      "evidence_confidence": 1.0,
      "confidence_label": "High",
      "main_road_frac": 0.042,
      "heavy_vehicle_ratio": 0.034,
      "peak_hour": 11,
      "peak_concentration": 0.402,
      "traffic_window_frac": 0.516,
      "dominant_violation": "WRONG PARKING",
      "dominant_vehicle": "SCOOTER"
    },
    {
      "name": "BTP071 - Prasanna Junction",
      "rank": 42,
      "lat": 12.97437,
      "lon": 77.552034,
      "count": 721,
      "cis": 40.4,
      "cis_raw": 40.4,
      "evidence_confidence": 1.0,
      "confidence_label": "High",
      "main_road_frac": 0.011,
      "heavy_vehicle_ratio": 0.039,
      "peak_hour": 11,
      "peak_concentration": 0.47,
      "traffic_window_frac": 0.632,
      "dominant_violation": "NO PARKING",
      "dominant_vehicle": "SCOOTER"
    },
    {
      "name": "BTP118 - Basappa Circle",
      "rank": 43,
      "lat": 12.958166,
      "lon": 77.577567,
      "count": 653,
      "cis": 39.8,
      "cis_raw": 39.8,
      "evidence_confidence": 1.0,
      "confidence_label": "High",
      "main_road_frac": 0.044,
      "heavy_vehicle_ratio": 0.167,
      "peak_hour": 10,
      "peak_concentration": 0.403,
      "traffic_window_frac": 0.541,
      "dominant_violation": "WRONG PARKING",
      "dominant_vehicle": "SCOOTER"
    },
    {
      "name": "BTP140 - Madiwala Check Post",
      "rank": 44,
      "lat": 12.932306,
      "lon": 77.613281,
      "count": 368,
      "cis": 39.8,
      "cis_raw": 40.7,
      "evidence_confidence": 0.951,
      "confidence_label": "High",
      "main_road_frac": 0.285,
      "heavy_vehicle_ratio": 0.041,
      "peak_hour": 11,
      "peak_concentration": 0.462,
      "traffic_window_frac": 0.527,
      "dominant_violation": "NO PARKING",
      "dominant_vehicle": "CAR"
    },
    {
      "name": "BTP096 - Gali Anjaneya Temple",
      "rank": 45,
      "lat": 12.952595,
      "lon": 77.541216,
      "count": 972,
      "cis": 39.7,
      "cis_raw": 39.7,
      "evidence_confidence": 1.0,
      "confidence_label": "High",
      "main_road_frac": 0.222,
      "heavy_vehicle_ratio": 0.035,
      "peak_hour": 1,
      "peak_concentration": 0.308,
      "traffic_window_frac": 0.347,
      "dominant_violation": "NO PARKING",
      "dominant_vehicle": "SCOOTER"
    },
    {
      "name": "BTP170 - Dr. Bheem Rao Palace, Chord Road",
      "rank": 46,
      "lat": 12.990372,
      "lon": 77.551226,
      "count": 573,
      "cis": 39.7,
      "cis_raw": 39.7,
      "evidence_confidence": 1.0,
      "confidence_label": "High",
      "main_road_frac": 0.162,
      "heavy_vehicle_ratio": 0.122,
      "peak_hour": 2,
      "peak_concentration": 0.501,
      "traffic_window_frac": 0.372,
      "dominant_violation": "WRONG PARKING",
      "dominant_vehicle": "CAR"
    },
    {
      "name": "BTP011 - RR Kalyana Mantapa, Dr. Rajkumar Road",
      "rank": 47,
      "lat": 12.993695,
      "lon": 77.553792,
      "count": 1208,
      "cis": 39.6,
      "cis_raw": 39.6,
      "evidence_confidence": 1.0,
      "confidence_label": "High",
      "main_road_frac": 0.055,
      "heavy_vehicle_ratio": 0.098,
      "peak_hour": 3,
      "peak_concentration": 0.634,
      "traffic_window_frac": 0.156,
      "dominant_violation": "WRONG PARKING",
      "dominant_vehicle": "CAR"
    },
    {
      "name": "BTP136 - Hosur-Tavarkere Road Junction",
      "rank": 48,
      "lat": 12.934327,
      "lon": 77.608447,
      "count": 360,
      "cis": 39.1,
      "cis_raw": 40.1,
      "evidence_confidence": 0.947,
      "confidence_label": "High",
      "main_road_frac": 0.35,
      "heavy_vehicle_ratio": 0.047,
      "peak_hour": 2,
      "peak_concentration": 0.517,
      "traffic_window_frac": 0.353,
      "dominant_violation": "NO PARKING",
      "dominant_vehicle": "CAR"
    },
    {
      "name": "BTP126 - Dairy Circle",
      "rank": 49,
      "lat": 12.936744,
      "lon": 77.602429,
      "count": 334,
      "cis": 38.8,
      "cis_raw": 40.0,
      "evidence_confidence": 0.935,
      "confidence_label": "High",
      "main_road_frac": 0.368,
      "heavy_vehicle_ratio": 0.066,
      "peak_hour": 7,
      "peak_concentration": 0.515,
      "traffic_window_frac": 0.335,
      "dominant_violation": "NO PARKING",
      "dominant_vehicle": "CAR"
    },
    {
      "name": "BTP017 - Attiguppe Circle",
      "rank": 50,
      "lat": 12.960583,
      "lon": 77.529638,
      "count": 422,
      "cis": 38.4,
      "cis_raw": 38.9,
      "evidence_confidence": 0.973,
      "confidence_label": "High",
      "main_road_frac": 0.019,
      "heavy_vehicle_ratio": 0.009,
      "peak_hour": 11,
      "peak_concentration": 0.578,
      "traffic_window_frac": 0.64,
      "dominant_violation": "WRONG PARKING",
      "dominant_vehicle": "SCOOTER"
    }
  ],
  "stations": [
    {
      "name": "Shivajinagar",
      "rank": 1,
      "lat": 12.982142,
      "lon": 77.607041,
      "count": 28044,
      "cis": 55.9,
      "cis_raw": 55.9,
      "evidence_confidence": 1.0,
      "confidence_label": "High",
      "main_road_frac": 0.037,
      "heavy_vehicle_ratio": 0.015,
      "peak_hour": 10,
      "peak_concentration": 0.453,
      "traffic_window_frac": 0.728,
      "num_junctions": 6
    },
    {
      "name": "Upparpet",
      "rank": 2,
      "lat": 12.976666,
      "lon": 77.577388,
      "count": 34468,
      "cis": 53.7,
      "cis_raw": 53.7,
      "evidence_confidence": 1.0,
      "confidence_label": "High",
      "main_road_frac": 0.021,
      "heavy_vehicle_ratio": 0.04,
      "peak_hour": 9,
      "peak_concentration": 0.351,
      "traffic_window_frac": 0.547,
      "num_junctions": 12
    },
    {
      "name": "HAL Old Airport",
      "rank": 3,
      "lat": 12.943423,
      "lon": 77.696756,
      "count": 20819,
      "cis": 53.2,
      "cis_raw": 53.2,
      "evidence_confidence": 1.0,
      "confidence_label": "High",
      "main_road_frac": 0.308,
      "heavy_vehicle_ratio": 0.02,
      "peak_hour": 4,
      "peak_concentration": 0.365,
      "traffic_window_frac": 0.43,
      "num_junctions": 1
    },
    {
      "name": "Malleshwaram",
      "rank": 4,
      "lat": 13.005484,
      "lon": 77.559836,
      "count": 22200,
      "cis": 51.2,
      "cis_raw": 51.2,
      "evidence_confidence": 1.0,
      "confidence_label": "High",
      "main_road_frac": 0.012,
      "heavy_vehicle_ratio": 0.011,
      "peak_hour": 10,
      "peak_concentration": 0.39,
      "traffic_window_frac": 0.641,
      "num_junctions": 8
    },
    {
      "name": "City Market",
      "rank": 5,
      "lat": 12.964505,
      "lon": 77.577126,
      "count": 17646,
      "cis": 47.2,
      "cis_raw": 47.2,
      "evidence_confidence": 1.0,
      "confidence_label": "High",
      "main_road_frac": 0.034,
      "heavy_vehicle_ratio": 0.123,
      "peak_hour": 9,
      "peak_concentration": 0.29,
      "traffic_window_frac": 0.468,
      "num_junctions": 16
    },
    {
      "name": "Kodigehalli",
      "rank": 6,
      "lat": 13.060296,
      "lon": 77.586265,
      "count": 10916,
      "cis": 46.2,
      "cis_raw": 46.2,
      "evidence_confidence": 1.0,
      "confidence_label": "High",
      "main_road_frac": 0.022,
      "heavy_vehicle_ratio": 0.02,
      "peak_hour": 11,
      "peak_concentration": 0.461,
      "traffic_window_frac": 0.63,
      "num_junctions": 1
    },
    {
      "name": "Vijayanagara",
      "rank": 7,
      "lat": 12.977795,
      "lon": 77.542829,
      "count": 14652,
      "cis": 45.9,
      "cis_raw": 45.9,
      "evidence_confidence": 1.0,
      "confidence_label": "High",
      "main_road_frac": 0.031,
      "heavy_vehicle_ratio": 0.012,
      "peak_hour": 10,
      "peak_concentration": 0.354,
      "traffic_window_frac": 0.528,
      "num_junctions": 19
    },
    {
      "name": "Mahadevapura",
      "rank": 8,
      "lat": 12.993506,
      "lon": 77.694738,
      "count": 6187,
      "cis": 45.0,
      "cis_raw": 45.0,
      "evidence_confidence": 1.0,
      "confidence_label": "High",
      "main_road_frac": 0.401,
      "heavy_vehicle_ratio": 0.029,
      "peak_hour": 11,
      "peak_concentration": 0.316,
      "traffic_window_frac": 0.495,
      "num_junctions": 1
    },
    {
      "name": "Rajajinagar",
      "rank": 9,
      "lat": 12.998552,
      "lon": 77.548612,
      "count": 10998,
      "cis": 44.7,
      "cis_raw": 44.7,
      "evidence_confidence": 1.0,
      "confidence_label": "High",
      "main_road_frac": 0.07,
      "heavy_vehicle_ratio": 0.066,
      "peak_hour": 3,
      "peak_concentration": 0.381,
      "traffic_window_frac": 0.497,
      "num_junctions": 19
    },
    {
      "name": "Magadi Road",
      "rank": 10,
      "lat": 12.974909,
      "lon": 77.553651,
      "count": 8558,
      "cis": 43.1,
      "cis_raw": 43.1,
      "evidence_confidence": 1.0,
      "confidence_label": "High",
      "main_road_frac": 0.051,
      "heavy_vehicle_ratio": 0.042,
      "peak_hour": 11,
      "peak_concentration": 0.39,
      "traffic_window_frac": 0.571,
      "num_junctions": 18
    },
    {
      "name": "K.R. Pura",
      "rank": 11,
      "lat": 13.010588,
      "lon": 77.69773,
      "count": 6546,
      "cis": 42.5,
      "cis_raw": 42.5,
      "evidence_confidence": 1.0,
      "confidence_label": "High",
      "main_road_frac": 0.255,
      "heavy_vehicle_ratio": 0.069,
      "peak_hour": 0,
      "peak_concentration": 0.393,
      "traffic_window_frac": 0.393,
      "num_junctions": 1
    },
    {
      "name": "Jeevanbheemanagar",
      "rank": 12,
      "lat": 12.968354,
      "lon": 77.647019,
      "count": 6736,
      "cis": 42.3,
      "cis_raw": 42.3,
      "evidence_confidence": 1.0,
      "confidence_label": "High",
      "main_road_frac": 0.191,
      "heavy_vehicle_ratio": 0.019,
      "peak_hour": 7,
      "peak_concentration": 0.338,
      "traffic_window_frac": 0.536,
      "num_junctions": 3
    },
    {
      "name": "Halasuru Gate",
      "rank": 13,
      "lat": 12.965627,
      "lon": 77.58384,
      "count": 6294,
      "cis": 42.0,
      "cis_raw": 42.0,
      "evidence_confidence": 1.0,
      "confidence_label": "High",
      "main_road_frac": 0.034,
      "heavy_vehicle_ratio": 0.116,
      "peak_hour": 10,
      "peak_concentration": 0.404,
      "traffic_window_frac": 0.629,
      "num_junctions": 19
    },
    {
      "name": "Byatarayanapura",
      "rank": 14,
      "lat": 12.952648,
      "lon": 77.531878,
      "count": 4555,
      "cis": 39.8,
      "cis_raw": 39.8,
      "evidence_confidence": 1.0,
      "confidence_label": "High",
      "main_road_frac": 0.173,
      "heavy_vehicle_ratio": 0.062,
      "peak_hour": 12,
      "peak_concentration": 0.389,
      "traffic_window_frac": 0.539,
      "num_junctions": 7
    },
    {
      "name": "Electronic City",
      "rank": 15,
      "lat": 12.848747,
      "lon": 77.656297,
      "count": 4333,
      "cis": 39.1,
      "cis_raw": 39.1,
      "evidence_confidence": 1.0,
      "confidence_label": "High",
      "main_road_frac": 0.103,
      "heavy_vehicle_ratio": 0.076,
      "peak_hour": 12,
      "peak_concentration": 0.486,
      "traffic_window_frac": 0.52,
      "num_junctions": 1
    },
    {
      "name": "Chikkajala",
      "rank": 16,
      "lat": 13.182778,
      "lon": 77.671074,
      "count": 5834,
      "cis": 38.9,
      "cis_raw": 38.9,
      "evidence_confidence": 1.0,
      "confidence_label": "High",
      "main_road_frac": 0.244,
      "heavy_vehicle_ratio": 0.012,
      "peak_hour": 4,
      "peak_concentration": 0.302,
      "traffic_window_frac": 0.354,
      "num_junctions": 1
    },
    {
      "name": "Chamarajpet",
      "rank": 17,
      "lat": 12.970224,
      "lon": 77.570951,
      "count": 3795,
      "cis": 38.6,
      "cis_raw": 38.6,
      "evidence_confidence": 1.0,
      "confidence_label": "High",
      "main_road_frac": 0.234,
      "heavy_vehicle_ratio": 0.168,
      "peak_hour": 7,
      "peak_concentration": 0.298,
      "traffic_window_frac": 0.473,
      "num_junctions": 12
    },
    {
      "name": "HSR Layout",
      "rank": 18,
      "lat": 12.909352,
      "lon": 77.636665,
      "count": 5018,
      "cis": 38.2,
      "cis_raw": 38.2,
      "evidence_confidence": 1.0,
      "confidence_label": "High",
      "main_road_frac": 0.02,
      "heavy_vehicle_ratio": 0.089,
      "peak_hour": 11,
      "peak_concentration": 0.435,
      "traffic_window_frac": 0.517,
      "num_junctions": 1
    },
    {
      "name": "Whitefield",
      "rank": 19,
      "lat": 12.95755,
      "lon": 77.731438,
      "count": 2303,
      "cis": 38.1,
      "cis_raw": 38.1,
      "evidence_confidence": 1.0,
      "confidence_label": "High",
      "main_road_frac": 0.404,
      "heavy_vehicle_ratio": 0.059,
      "peak_hour": 10,
      "peak_concentration": 0.342,
      "traffic_window_frac": 0.553,
      "num_junctions": 1
    },
    {
      "name": "Banaswadi",
      "rank": 20,
      "lat": 12.999252,
      "lon": 77.662775,
      "count": 3759,
      "cis": 37.5,
      "cis_raw": 37.5,
      "evidence_confidence": 1.0,
      "confidence_label": "High",
      "main_road_frac": 0.281,
      "heavy_vehicle_ratio": 0.024,
      "peak_hour": 7,
      "peak_concentration": 0.287,
      "traffic_window_frac": 0.472,
      "num_junctions": 1
    },
    {
      "name": "Jayanagara",
      "rank": 21,
      "lat": 12.925811,
      "lon": 77.583474,
      "count": 3813,
      "cis": 36.1,
      "cis_raw": 36.1,
      "evidence_confidence": 1.0,
      "confidence_label": "High",
      "main_road_frac": 0.101,
      "heavy_vehicle_ratio": 0.014,
      "peak_hour": 8,
      "peak_concentration": 0.339,
      "traffic_window_frac": 0.568,
      "num_junctions": 22
    },
    {
      "name": "Halasur",
      "rank": 22,
      "lat": 12.972901,
      "lon": 77.621195,
      "count": 4011,
      "cis": 35.7,
      "cis_raw": 35.7,
      "evidence_confidence": 1.0,
      "confidence_label": "High",
      "main_road_frac": 0.095,
      "heavy_vehicle_ratio": 0.023,
      "peak_hour": 4,
      "peak_concentration": 0.441,
      "traffic_window_frac": 0.424,
      "num_junctions": 6
    },
    {
      "name": "Bellandur",
      "rank": 23,
      "lat": 12.918128,
      "lon": 77.679137,
      "count": 4964,
      "cis": 35.1,
      "cis_raw": 35.1,
      "evidence_confidence": 1.0,
      "confidence_label": "High",
      "main_road_frac": 0.056,
      "heavy_vehicle_ratio": 0.035,
      "peak_hour": 4,
      "peak_concentration": 0.321,
      "traffic_window_frac": 0.409,
      "num_junctions": 1
    },
    {
      "name": "Pulikeshinagar(F.Town)",
      "rank": 24,
      "lat": 12.99572,
      "lon": 77.613647,
      "count": 4136,
      "cis": 34.8,
      "cis_raw": 34.8,
      "evidence_confidence": 1.0,
      "confidence_label": "High",
      "main_road_frac": 0.025,
      "heavy_vehicle_ratio": 0.032,
      "peak_hour": 3,
      "peak_concentration": 0.437,
      "traffic_window_frac": 0.437,
      "num_junctions": 1
    },
    {
      "name": "Sheshadripuram",
      "rank": 25,
      "lat": 12.991062,
      "lon": 77.572993,
      "count": 3090,
      "cis": 34.5,
      "cis_raw": 34.5,
      "evidence_confidence": 1.0,
      "confidence_label": "High",
      "main_road_frac": 0.039,
      "heavy_vehicle_ratio": 0.03,
      "peak_hour": 10,
      "peak_concentration": 0.388,
      "traffic_window_frac": 0.611,
      "num_junctions": 5
    },
    {
      "name": "High ground",
      "rank": 26,
      "lat": 12.990155,
      "lon": 77.5874,
      "count": 4951,
      "cis": 34.4,
      "cis_raw": 34.4,
      "evidence_confidence": 1.0,
      "confidence_label": "High",
      "main_road_frac": 0.014,
      "heavy_vehicle_ratio": 0.014,
      "peak_hour": 4,
      "peak_concentration": 0.415,
      "traffic_window_frac": 0.359,
      "num_junctions": 11
    },
    {
      "name": "Mico Layout",
      "rank": 27,
      "lat": 12.921046,
      "lon": 77.605853,
      "count": 2588,
      "cis": 34.1,
      "cis_raw": 34.1,
      "evidence_confidence": 1.0,
      "confidence_label": "High",
      "main_road_frac": 0.204,
      "heavy_vehicle_ratio": 0.041,
      "peak_hour": 11,
      "peak_concentration": 0.376,
      "traffic_window_frac": 0.472,
      "num_junctions": 11
    },
    {
      "name": "Yeshwanthpura",
      "rank": 28,
      "lat": 13.026972,
      "lon": 77.546351,
      "count": 2587,
      "cis": 33.5,
      "cis_raw": 33.5,
      "evidence_confidence": 1.0,
      "confidence_label": "High",
      "main_road_frac": 0.229,
      "heavy_vehicle_ratio": 0.082,
      "peak_hour": 10,
      "peak_concentration": 0.3,
      "traffic_window_frac": 0.432,
      "num_junctions": 1
    },
    {
      "name": "Cubbon Park",
      "rank": 29,
      "lat": 12.975297,
      "lon": 77.595935,
      "count": 3255,
      "cis": 33.5,
      "cis_raw": 33.5,
      "evidence_confidence": 1.0,
      "confidence_label": "High",
      "main_road_frac": 0.059,
      "heavy_vehicle_ratio": 0.005,
      "peak_hour": 11,
      "peak_concentration": 0.33,
      "traffic_window_frac": 0.558,
      "num_junctions": 19
    },
    {
      "name": "Wilson Garden",
      "rank": 30,
      "lat": 12.946863,
      "lon": 77.588993,
      "count": 3108,
      "cis": 33.1,
      "cis_raw": 33.1,
      "evidence_confidence": 1.0,
      "confidence_label": "High",
      "main_road_frac": 0.021,
      "heavy_vehicle_ratio": 0.034,
      "peak_hour": 8,
      "peak_concentration": 0.33,
      "traffic_window_frac": 0.586,
      "num_junctions": 17
    },
    {
      "name": "Adugodi",
      "rank": 31,
      "lat": 12.934974,
      "lon": 77.620823,
      "count": 3332,
      "cis": 32.8,
      "cis_raw": 32.8,
      "evidence_confidence": 1.0,
      "confidence_label": "High",
      "main_road_frac": 0.066,
      "heavy_vehicle_ratio": 0.019,
      "peak_hour": 11,
      "peak_concentration": 0.285,
      "traffic_window_frac": 0.52,
      "num_junctions": 10
    },
    {
      "name": "Basavanagudi",
      "rank": 32,
      "lat": 12.943183,
      "lon": 77.571116,
      "count": 3604,
      "cis": 32.7,
      "cis_raw": 32.7,
      "evidence_confidence": 1.0,
      "confidence_label": "High",
      "main_road_frac": 0.035,
      "heavy_vehicle_ratio": 0.022,
      "peak_hour": 10,
      "peak_concentration": 0.351,
      "traffic_window_frac": 0.452,
      "num_junctions": 13
    },
    {
      "name": "Ashok Nagar",
      "rank": 33,
      "lat": 12.96541,
      "lon": 77.604517,
      "count": 3524,
      "cis": 32.5,
      "cis_raw": 32.5,
      "evidence_confidence": 1.0,
      "confidence_label": "High",
      "main_road_frac": 0.054,
      "heavy_vehicle_ratio": 0.02,
      "peak_hour": 4,
      "peak_concentration": 0.405,
      "traffic_window_frac": 0.38,
      "num_junctions": 11
    },
    {
      "name": "Hebbala",
      "rank": 34,
      "lat": 13.039055,
      "lon": 77.590043,
      "count": 3209,
      "cis": 31.7,
      "cis_raw": 31.7,
      "evidence_confidence": 1.0,
      "confidence_label": "High",
      "main_road_frac": 0.008,
      "heavy_vehicle_ratio": 0.017,
      "peak_hour": 4,
      "peak_concentration": 0.349,
      "traffic_window_frac": 0.488,
      "num_junctions": 1
    },
    {
      "name": "Kamakshipalya",
      "rank": 35,
      "lat": 12.989753,
      "lon": 77.510952,
      "count": 1431,
      "cis": 29.1,
      "cis_raw": 29.2,
      "evidence_confidence": 0.994,
      "confidence_label": "High",
      "main_road_frac": 0.064,
      "heavy_vehicle_ratio": 0.051,
      "peak_hour": 11,
      "peak_concentration": 0.447,
      "traffic_window_frac": 0.601,
      "num_junctions": 2
    },
    {
      "name": "Sadashivanagar",
      "rank": 36,
      "lat": 13.020608,
      "lon": 77.575601,
      "count": 1445,
      "cis": 29.0,
      "cis_raw": 29.1,
      "evidence_confidence": 0.995,
      "confidence_label": "High",
      "main_road_frac": 0.087,
      "heavy_vehicle_ratio": 0.022,
      "peak_hour": 11,
      "peak_concentration": 0.386,
      "traffic_window_frac": 0.636,
      "num_junctions": 2
    },
    {
      "name": "Madiwala",
      "rank": 37,
      "lat": 12.917977,
      "lon": 77.622477,
      "count": 1563,
      "cis": 29.0,
      "cis_raw": 29.0,
      "evidence_confidence": 1.0,
      "confidence_label": "High",
      "main_road_frac": 0.161,
      "heavy_vehicle_ratio": 0.063,
      "peak_hour": 1,
      "peak_concentration": 0.342,
      "traffic_window_frac": 0.494,
      "num_junctions": 6
    },
    {
      "name": "Yelahanka",
      "rank": 38,
      "lat": 13.100761,
      "lon": 77.596251,
      "count": 2440,
      "cis": 28.6,
      "cis_raw": 28.6,
      "evidence_confidence": 1.0,
      "confidence_label": "High",
      "main_road_frac": 0.038,
      "heavy_vehicle_ratio": 0.055,
      "peak_hour": 2,
      "peak_concentration": 0.4,
      "traffic_window_frac": 0.325,
      "num_junctions": 1
    },
    {
      "name": "Hulimavu",
      "rank": 39,
      "lat": 12.882442,
      "lon": 77.626295,
      "count": 2395,
      "cis": 28.5,
      "cis_raw": 28.5,
      "evidence_confidence": 1.0,
      "confidence_label": "High",
      "main_road_frac": 0.002,
      "heavy_vehicle_ratio": 0.104,
      "peak_hour": 2,
      "peak_concentration": 0.516,
      "traffic_window_frac": 0.24,
      "num_junctions": 1
    },
    {
      "name": "Jalahalli",
      "rank": 40,
      "lat": 13.052361,
      "lon": 77.540288,
      "count": 1160,
      "cis": 27.6,
      "cis_raw": 28.1,
      "evidence_confidence": 0.965,
      "confidence_label": "High",
      "main_road_frac": 0.116,
      "heavy_vehicle_ratio": 0.041,
      "peak_hour": 11,
      "peak_concentration": 0.518,
      "traffic_window_frac": 0.525,
      "num_junctions": 1
    },
    {
      "name": "K.S. Layout",
      "rank": 41,
      "lat": 12.905895,
      "lon": 77.55562,
      "count": 828,
      "cis": 27.5,
      "cis_raw": 28.6,
      "evidence_confidence": 0.919,
      "confidence_label": "High",
      "main_road_frac": 0.327,
      "heavy_vehicle_ratio": 0.056,
      "peak_hour": 12,
      "peak_concentration": 0.478,
      "traffic_window_frac": 0.494,
      "num_junctions": 6
    },
    {
      "name": "Jnanabharathi",
      "rank": 42,
      "lat": 12.961941,
      "lon": 77.508099,
      "count": 1063,
      "cis": 27.5,
      "cis_raw": 28.1,
      "evidence_confidence": 0.953,
      "confidence_label": "High",
      "main_road_frac": 0.113,
      "heavy_vehicle_ratio": 0.064,
      "peak_hour": 11,
      "peak_concentration": 0.478,
      "traffic_window_frac": 0.598,
      "num_junctions": 1
    },
    {
      "name": "Thalagattapura",
      "rank": 43,
      "lat": 12.878696,
      "lon": 77.553621,
      "count": 870,
      "cis": 27.0,
      "cis_raw": 28.0,
      "evidence_confidence": 0.926,
      "confidence_label": "High",
      "main_road_frac": 0.079,
      "heavy_vehicle_ratio": 0.061,
      "peak_hour": 11,
      "peak_concentration": 0.568,
      "traffic_window_frac": 0.676,
      "num_junctions": 1
    },
    {
      "name": "R.T. Nagar",
      "rank": 44,
      "lat": 13.017528,
      "lon": 77.591373,
      "count": 1736,
      "cis": 27.0,
      "cis_raw": 27.0,
      "evidence_confidence": 1.0,
      "confidence_label": "High",
      "main_road_frac": 0.023,
      "heavy_vehicle_ratio": 0.047,
      "peak_hour": 11,
      "peak_concentration": 0.336,
      "traffic_window_frac": 0.497,
      "num_junctions": 2
    },
    {
      "name": "J.P. Nagar",
      "rank": 45,
      "lat": 12.904673,
      "lon": 77.587726,
      "count": 1637,
      "cis": 26.8,
      "cis_raw": 26.8,
      "evidence_confidence": 1.0,
      "confidence_label": "High",
      "main_road_frac": 0.057,
      "heavy_vehicle_ratio": 0.079,
      "peak_hour": 3,
      "peak_concentration": 0.346,
      "traffic_window_frac": 0.442,
      "num_junctions": 17
    },
    {
      "name": "Banashankari",
      "rank": 46,
      "lat": 12.926987,
      "lon": 77.554125,
      "count": 1202,
      "cis": 24.7,
      "cis_raw": 25.0,
      "evidence_confidence": 0.97,
      "confidence_label": "High",
      "main_road_frac": 0.07,
      "heavy_vehicle_ratio": 0.042,
      "peak_hour": 11,
      "peak_concentration": 0.434,
      "traffic_window_frac": 0.438,
      "num_junctions": 10
    },
    {
      "name": "Peenya",
      "rank": 47,
      "lat": 13.037112,
      "lon": 77.511948,
      "count": 974,
      "cis": 24.5,
      "cis_raw": 25.2,
      "evidence_confidence": 0.941,
      "confidence_label": "High",
      "main_road_frac": 0.123,
      "heavy_vehicle_ratio": 0.079,
      "peak_hour": 11,
      "peak_concentration": 0.439,
      "traffic_window_frac": 0.464,
      "num_junctions": 1
    },
    {
      "name": "K.G. Halli",
      "rank": 48,
      "lat": 13.029464,
      "lon": 77.622457,
      "count": 892,
      "cis": 23.7,
      "cis_raw": 24.5,
      "evidence_confidence": 0.929,
      "confidence_label": "High",
      "main_road_frac": 0.058,
      "heavy_vehicle_ratio": 0.275,
      "peak_hour": 3,
      "peak_concentration": 0.555,
      "traffic_window_frac": 0.298,
      "num_junctions": 1
    },
    {
      "name": "V.V.Puram (C.Pet)",
      "rank": 49,
      "lat": 12.958913,
      "lon": 77.574913,
      "count": 1556,
      "cis": 23.5,
      "cis_raw": 23.5,
      "evidence_confidence": 1.0,
      "confidence_label": "High",
      "main_road_frac": 0.04,
      "heavy_vehicle_ratio": 0.079,
      "peak_hour": 10,
      "peak_concentration": 0.243,
      "traffic_window_frac": 0.362,
      "num_junctions": 16
    },
    {
      "name": "Kengeri",
      "rank": 50,
      "lat": 12.92015,
      "lon": 77.498584,
      "count": 464,
      "cis": 21.9,
      "cis_raw": 23.6,
      "evidence_confidence": 0.84,
      "confidence_label": "Medium",
      "main_road_frac": 0.233,
      "heavy_vehicle_ratio": 0.062,
      "peak_hour": 11,
      "peak_concentration": 0.457,
      "traffic_window_frac": 0.634,
      "num_junctions": 1
    },
    {
      "name": "Chikkabanavara",
      "rank": 51,
      "lat": 13.051061,
      "lon": 77.504246,
      "count": 785,
      "cis": 21.7,
      "cis_raw": 22.6,
      "evidence_confidence": 0.912,
      "confidence_label": "High",
      "main_road_frac": 0.116,
      "heavy_vehicle_ratio": 0.096,
      "peak_hour": 11,
      "peak_concentration": 0.39,
      "traffic_window_frac": 0.452,
      "num_junctions": 1
    },
    {
      "name": "Hennuru",
      "rank": 52,
      "lat": 13.058006,
      "lon": 77.63714,
      "count": 892,
      "cis": 21.6,
      "cis_raw": 22.3,
      "evidence_confidence": 0.929,
      "confidence_label": "High",
      "main_road_frac": 0.136,
      "heavy_vehicle_ratio": 0.047,
      "peak_hour": 13,
      "peak_concentration": 0.325,
      "traffic_window_frac": 0.428,
      "num_junctions": 1
    },
    {
      "name": "Devanahalli Airport",
      "rank": 53,
      "lat": 13.199344,
      "lon": 77.687761,
      "count": 940,
      "cis": 20.4,
      "cis_raw": 21.0,
      "evidence_confidence": 0.936,
      "confidence_label": "High",
      "main_road_frac": 0.03,
      "heavy_vehicle_ratio": 0.026,
      "peak_hour": 4,
      "peak_concentration": 0.446,
      "traffic_window_frac": 0.364,
      "num_junctions": 1
    },
    {
      "name": "No Police Station",
      "rank": 54,
      "lat": 13.012575,
      "lon": 77.539058,
      "count": 339,
      "cis": 16.4,
      "cis_raw": 18.1,
      "evidence_confidence": 0.797,
      "confidence_label": "Medium",
      "main_road_frac": 0.15,
      "heavy_vehicle_ratio": 0.212,
      "peak_hour": 12,
      "peak_concentration": 0.389,
      "traffic_window_frac": 0.499,
      "num_junctions": 7
    }
  ],
  "formula": "CIS = raw_score * (0.55 + 0.45 * evidence_confidence); raw_score = 0.40*log_density + 0.20*main_road_frac + 0.12*heavy_vehicle + 0.13*peak_concentration + 0.15*traffic_window_frac"
}