{
  "junctions": [
    {
      "name": "BTP051 - Safina Plaza Junction",
      "rank": 1,
      "lat": 12.981212,
      "lon": 77.608695,
      "count": 15449,
      "cis": 48.8,
      "main_road_frac": 0.039,
      "heavy_vehicle_ratio": 0.013,
      "peak_hour": 10,
      "peak_concentration": 0.508,
      "dominant_violation": "WRONG PARKING",
      "dominant_vehicle": "SCOOTER"
    },
    {
      "name": "BTP082 - KR Market Junction",
      "rank": 2,
      "lat": 12.964424,
      "lon": 77.577241,
      "count": 11538,
      "cis": 37.5,
      "main_road_frac": 0.029,
      "heavy_vehicle_ratio": 0.086,
      "peak_hour": 0,
      "peak_concentration": 0.342,
      "dominant_violation": "WRONG PARKING",
      "dominant_vehicle": "SCOOTER"
    },
    {
      "name": "BTP044 - Sagar Theatre Junction",
      "rank": 3,
      "lat": 12.974939,
      "lon": 77.578896,
      "count": 10549,
      "cis": 35.3,
      "main_road_frac": 0.024,
      "heavy_vehicle_ratio": 0.065,
      "peak_hour": 9,
      "peak_concentration": 0.404,
      "dominant_violation": "NO PARKING",
      "dominant_vehicle": "SCOOTER"
    },
    {
      "name": "BTP040 - Elite Junction",
      "rank": 4,
      "lat": 12.976597,
      "lon": 77.576602,
      "count": 10718,
      "cis": 34.1,
      "main_road_frac": 0.01,
      "heavy_vehicle_ratio": 0.014,
      "peak_hour": 9,
      "peak_concentration": 0.39,
      "dominant_violation": "NO PARKING",
      "dominant_vehicle": "SCOOTER"
    },
    {
      "name": "BTP213 - Royan Circle",
      "rank": 5,
      "lat": 12.960665,
      "lon": 77.568229,
      "count": 21,
      "cis": 30.8,
      "main_road_frac": 0.619,
      "heavy_vehicle_ratio": 0.19,
      "peak_hour": 7,
      "peak_concentration": 0.762,
      "dominant_violation": "PARKING IN A MAIN ROAD",
      "dominant_vehicle": "CAR"
    },
    {
      "name": "BTP143 - ASC Junction",
      "rank": 6,
      "lat": 12.969499,
      "lon": 77.619746,
      "count": 24,
      "cis": 27.1,
      "main_road_frac": 0.042,
      "heavy_vehicle_ratio": 0.708,
      "peak_hour": 0,
      "peak_concentration": 0.792,
      "dominant_violation": "NO PARKING",
      "dominant_vehicle": "HGV"
    },
    {
      "name": "BTP089 - Police Quarters, Sultan Road",
      "rank": 7,
      "lat": 12.960983,
      "lon": 77.563533,
      "count": 87,
      "cis": 26.2,
      "main_road_frac": 0.391,
      "heavy_vehicle_ratio": 0.425,
      "peak_hour": 2,
      "peak_concentration": 0.517,
      "dominant_violation": "WRONG PARKING",
      "dominant_vehicle": "LGV"
    },
    {
      "name": "BTP142 - Lower Agram Road Junction",
      "rank": 8,
      "lat": 12.961824,
      "lon": 77.615496,
      "count": 33,
      "cis": 25.2,
      "main_road_frac": 0.273,
      "heavy_vehicle_ratio": 0.212,
      "peak_hour": 2,
      "peak_concentration": 0.939,
      "dominant_violation": "WRONG PARKING",
      "dominant_vehicle": "CAR"
    },
    {
      "name": "BTP127 - Sagar Hospital, Jayanagar",
      "rank": 9,
      "lat": 12.927947,
      "lon": 77.598251,
      "count": 83,
      "cis": 24.9,
      "main_road_frac": 0.566,
      "heavy_vehicle_ratio": 0.12,
      "peak_hour": 3,
      "peak_concentration": 0.542,
      "dominant_violation": "NO PARKING",
      "dominant_vehicle": "CAR"
    },
    {
      "name": "BTP179 - 9th Block, 28th Main, Jayanagar",
      "rank": 10,
      "lat": 12.916956,
      "lon": 77.595086,
      "count": 110,
      "cis": 23.0,
      "main_road_frac": 0.464,
      "heavy_vehicle_ratio": 0.009,
      "peak_hour": 2,
      "peak_concentration": 0.727,
      "dominant_violation": "NO PARKING",
      "dominant_vehicle": "SCOOTER"
    },
    {
      "name": "BTP092 - Bangalore Builders Junction",
      "rank": 11,
      "lat": 12.959324,
      "lon": 77.555697,
      "count": 96,
      "cis": 22.5,
      "main_road_frac": 0.479,
      "heavy_vehicle_ratio": 0.156,
      "peak_hour": 2,
      "peak_concentration": 0.479,
      "dominant_violation": "NO PARKING",
      "dominant_vehicle": "CAR"
    },
    {
      "name": "BTP083 - AS Char Street, Mysore Road",
      "rank": 12,
      "lat": 12.96645,
      "lon": 77.574403,
      "count": 2778,
      "cis": 21.6,
      "main_road_frac": 0.189,
      "heavy_vehicle_ratio": 0.26,
      "peak_hour": 0,
      "peak_concentration": 0.303,
      "dominant_violation": "WRONG PARKING",
      "dominant_vehicle": "PASSENGER AUTO"
    },
    {
      "name": "BTP202 - East End Main Road, Jayanagar",
      "rank": 13,
      "lat": 12.917187,
      "lon": 77.597012,
      "count": 142,
      "cis": 21.6,
      "main_road_frac": 0.451,
      "heavy_vehicle_ratio": 0.028,
      "peak_hour": 2,
      "peak_concentration": 0.627,
      "dominant_violation": "NO PARKING",
      "dominant_vehicle": "CAR"
    },
    {
      "name": "BTP058 - Subbanna Junction",
      "rank": 14,
      "lat": 12.979022,
      "lon": 77.578661,
      "count": 5189,
      "cis": 21.3,
      "main_road_frac": 0.008,
      "heavy_vehicle_ratio": 0.035,
      "peak_hour": 1,
      "peak_concentration": 0.466,
      "dominant_violation": "NO PARKING",
      "dominant_vehicle": "CAR"
    },
    {
      "name": "BTP211 - Central Street Junction",
      "rank": 15,
      "lat": 12.983371,
      "lon": 77.603454,
      "count": 5388,
      "cis": 21.1,
      "main_road_frac": 0.058,
      "heavy_vehicle_ratio": 0.02,
      "peak_hour": 10,
      "peak_concentration": 0.355,
      "dominant_violation": "WRONG PARKING",
      "dominant_vehicle": "PASSENGER AUTO"
    },
    {
      "name": "BTP156 - Kamakya Junction",
      "rank": 16,
      "lat": 12.92372,
      "lon": 77.553606,
      "count": 13,
      "cis": 20.8,
      "main_road_frac": 0.154,
      "heavy_vehicle_ratio": 0.385,
      "peak_hour": 10,
      "peak_concentration": 0.615,
      "dominant_violation": "WRONG PARKING",
      "dominant_vehicle": "CAR"
    },
    {
      "name": "BTP094 - Sri Skanda Complex, Mysore Road",
      "rank": 17,
      "lat": 12.955816,
      "lon": 77.546178,
      "count": 112,
      "cis": 20.5,
      "main_road_frac": 0.33,
      "heavy_vehicle_ratio": 0.241,
      "peak_hour": 4,
      "peak_concentration": 0.473,
      "dominant_violation": "NO PARKING",
      "dominant_vehicle": "CAR"
    },
    {
      "name": "BTP098 - Nayandahalli Junction",
      "rank": 18,
      "lat": 12.944824,
      "lon": 77.527685,
      "count": 206,
      "cis": 20.4,
      "main_road_frac": 0.383,
      "heavy_vehicle_ratio": 0.184,
      "peak_hour": 3,
      "peak_concentration": 0.442,
      "dominant_violation": "NO PARKING",
      "dominant_vehicle": "MAXI-CAB"
    },
    {
      "name": "BTP178 - 18th Main, Marenahalli",
      "rank": 19,
      "lat": 12.916898,
      "lon": 77.589567,
      "count": 7,
      "cis": 20.0,
      "main_road_frac": 0.143,
      "heavy_vehicle_ratio": 0.286,
      "peak_hour": 8,
      "peak_concentration": 0.714,
      "dominant_violation": "WRONG PARKING",
      "dominant_vehicle": "SCOOTER"
    },
    {
      "name": "BTP091 - Sirsi Circle",
      "rank": 20,
      "lat": 12.962208,
      "lon": 77.558628,
      "count": 263,
      "cis": 19.5,
      "main_road_frac": 0.281,
      "heavy_vehicle_ratio": 0.202,
      "peak_hour": 3,
      "peak_concentration": 0.521,
      "dominant_violation": "NO PARKING",
      "dominant_vehicle": "CAR"
    },
    {
      "name": "BTP080 - NR Road, SP Road Junction",
      "rank": 21,
      "lat": 12.964397,
      "lon": 77.583168,
      "count": 3681,
      "cis": 19.4,
      "main_road_frac": 0.034,
      "heavy_vehicle_ratio": 0.111,
      "peak_hour": 10,
      "peak_concentration": 0.455,
      "dominant_violation": "WRONG PARKING",
      "dominant_vehicle": "SCOOTER"
    },
    {
      "name": "BTP126 - Dairy Circle",
      "rank": 22,
      "lat": 12.936744,
      "lon": 77.602429,
      "count": 334,
      "cis": 19.1,
      "main_road_frac": 0.368,
      "heavy_vehicle_ratio": 0.066,
      "peak_hour": 7,
      "peak_concentration": 0.515,
      "dominant_violation": "NO PARKING",
      "dominant_vehicle": "CAR"
    },
    {
      "name": "BTP154 - Itmadu Junction",
      "rank": 23,
      "lat": 12.929791,
      "lon": 77.546565,
      "count": 12,
      "cis": 18.8,
      "main_road_frac": 0.083,
      "heavy_vehicle_ratio": 0.333,
      "peak_hour": 11,
      "peak_concentration": 0.667,
      "dominant_violation": "WRONG PARKING",
      "dominant_vehicle": "CAR"
    },
    {
      "name": "BTP136 - Hosur-Tavarkere Road Junction",
      "rank": 24,
      "lat": 12.934327,
      "lon": 77.608447,
      "count": 360,
      "cis": 18.4,
      "main_road_frac": 0.35,
      "heavy_vehicle_ratio": 0.047,
      "peak_hour": 2,
      "peak_concentration": 0.517,
      "dominant_violation": "NO PARKING",
      "dominant_vehicle": "CAR"
    },
    {
      "name": "BTP027 - Modi Bridge Junction",
      "rank": 25,
      "lat": 12.998897,
      "lon": 77.549416,
      "count": 4584,
      "cis": 18.2,
      "main_road_frac": 0.02,
      "heavy_vehicle_ratio": 0.007,
      "peak_hour": 7,
      "peak_concentration": 0.377,
      "dominant_violation": "WRONG PARKING",
      "dominant_vehicle": "SCOOTER"
    },
    {
      "name": "BTP020 - Hosahalli Metro Station",
      "rank": 26,
      "lat": 12.974144,
      "lon": 77.545294,
      "count": 4101,
      "cis": 17.2,
      "main_road_frac": 0.012,
      "heavy_vehicle_ratio": 0.001,
      "peak_hour": 4,
      "peak_concentration": 0.417,
      "dominant_violation": "WRONG PARKING",
      "dominant_vehicle": "SCOOTER"
    },
    {
      "name": "BTP198 - 9th Cross, 8th Main, JP Nagar",
      "rank": 27,
      "lat": 12.91034,
      "lon": 77.595722,
      "count": 14,
      "cis": 17.2,
      "main_road_frac": 0.286,
      "heavy_vehicle_ratio": 0.071,
      "peak_hour": 6,
      "peak_concentration": 0.571,
      "dominant_violation": "WRONG PARKING",
      "dominant_vehicle": "SCOOTER"
    },
    {
      "name": "BTP117 - 9th Cross, Kanakapura Road",
      "rank": 28,
      "lat": 12.912148,
      "lon": 77.573349,
      "count": 307,
      "cis": 17.0,
      "main_road_frac": 0.026,
      "heavy_vehicle_ratio": 0.257,
      "peak_hour": 3,
      "peak_concentration": 0.697,
      "dominant_violation": "WRONG PARKING",
      "dominant_vehicle": "SCOOTER"
    },
    {
      "name": "BTP057 - Anand Rao Junction",
      "rank": 29,
      "lat": 12.979395,
      "lon": 77.574388,
      "count": 3935,
      "cis": 16.6,
      "main_road_frac": 0.038,
      "heavy_vehicle_ratio": 0.049,
      "peak_hour": 9,
      "peak_concentration": 0.298,
      "dominant_violation": "WRONG PARKING",
      "dominant_vehicle": "CAR"
    },
    {
      "name": "BTP181 - Bileka Halli Junction",
      "rank": 30,
      "lat": 12.901994,
      "lon": 77.601121,
      "count": 8,
      "cis": 16.3,
      "main_road_frac": 0.125,
      "heavy_vehicle_ratio": 0.0,
      "peak_hour": 10,
      "peak_concentration": 0.875,
      "dominant_violation": "WRONG PARKING",
      "dominant_vehicle": "CAR"
    },
    {
      "name": "BTP104 - Medical College Circle",
      "rank": 31,
      "lat": 12.959563,
      "lon": 77.576614,
      "count": 1508,
      "cis": 16.2,
      "main_road_frac": 0.029,
      "heavy_vehicle_ratio": 0.33,
      "peak_hour": 11,
      "peak_concentration": 0.33,
      "dominant_violation": "WRONG PARKING",
      "dominant_vehicle": "SCOOTER"
    },
    {
      "name": "BTP085 - Briyand Circle",
      "rank": 32,
      "lat": 12.966069,
      "lon": 77.56949,
      "count": 166,
      "cis": 16.1,
      "main_road_frac": 0.133,
      "heavy_vehicle_ratio": 0.235,
      "peak_hour": 2,
      "peak_concentration": 0.512,
      "dominant_violation": "NO PARKING",
      "dominant_vehicle": "PASSENGER AUTO"
    },
    {
      "name": "BTP112 - 14th Cross, KR Road",
      "rank": 33,
      "lat": 12.929347,
      "lon": 77.573209,
      "count": 10,
      "cis": 16.0,
      "main_road_frac": 0.1,
      "heavy_vehicle_ratio": 0.0,
      "peak_hour": 5,
      "peak_concentration": 0.9,
      "dominant_violation": "NO PARKING",
      "dominant_vehicle": "CAR"
    },
    {
      "name": "BTP011 - RR Kalyana Mantapa, Dr. Rajkumar Road",
      "rank": 34,
      "lat": 12.993695,
      "lon": 77.553792,
      "count": 1208,
      "cis": 16.0,
      "main_road_frac": 0.055,
      "heavy_vehicle_ratio": 0.098,
      "peak_hour": 3,
      "peak_concentration": 0.634,
      "dominant_violation": "WRONG PARKING",
      "dominant_vehicle": "CAR"
    },
    {
      "name": "BTP093 - Toll Gate, Mysore Road",
      "rank": 35,
      "lat": 12.958754,
      "lon": 77.552138,
      "count": 90,
      "cis": 15.9,
      "main_road_frac": 0.278,
      "heavy_vehicle_ratio": 0.144,
      "peak_hour": 4,
      "peak_concentration": 0.389,
      "dominant_violation": "NO PARKING",
      "dominant_vehicle": "CAR"
    },
    {
      "name": "BTP140 - Madiwala Check Post",
      "rank": 36,
      "lat": 12.932306,
      "lon": 77.613281,
      "count": 368,
      "cis": 15.8,
      "main_road_frac": 0.285,
      "heavy_vehicle_ratio": 0.041,
      "peak_hour": 11,
      "peak_concentration": 0.462,
      "dominant_violation": "NO PARKING",
      "dominant_vehicle": "CAR"
    },
    {
      "name": "BTP226 - 33rd Cross, 11th Main, Jayanagar",
      "rank": 37,
      "lat": 12.925927,
      "lon": 77.585633,
      "count": 492,
      "cis": 15.8,
      "main_road_frac": 0.295,
      "heavy_vehicle_ratio": 0.008,
      "peak_hour": 8,
      "peak_concentration": 0.467,
      "dominant_violation": "NO PARKING",
      "dominant_vehicle": "CAR"
    },
    {
      "name": "BTP170 - Dr. Bheem Rao Palace, Chord Road",
      "rank": 38,
      "lat": 12.990372,
      "lon": 77.551226,
      "count": 573,
      "cis": 15.5,
      "main_road_frac": 0.162,
      "heavy_vehicle_ratio": 0.122,
      "peak_hour": 2,
      "peak_concentration": 0.501,
      "dominant_violation": "WRONG PARKING",
      "dominant_vehicle": "CAR"
    },
    {
      "name": "BTP101 - Blood Bank Circle, KH Road",
      "rank": 39,
      "lat": 12.961948,
      "lon": 77.596179,
      "count": 410,
      "cis": 15.5,
      "main_road_frac": 0.01,
      "heavy_vehicle_ratio": 0.046,
      "peak_hour": 3,
      "peak_concentration": 0.883,
      "dominant_violation": "NO PARKING",
      "dominant_vehicle": "SCOOTER"
    },
    {
      "name": "BTP032 - Windsor Circle",
      "rank": 40,
      "lat": 12.993088,
      "lon": 77.588184,
      "count": 2749,
      "cis": 15.3,
      "main_road_frac": 0.032,
      "heavy_vehicle_ratio": 0.006,
      "peak_hour": 3,
      "peak_concentration": 0.487,
      "dominant_violation": "WRONG PARKING",
      "dominant_vehicle": "SCOOTER"
    },
    {
      "name": "BTP045 - Danvanthri Road Junction",
      "rank": 41,
      "lat": 12.977065,
      "lon": 77.57479,
      "count": 3181,
      "cis": 15.1,
      "main_road_frac": 0.038,
      "heavy_vehicle_ratio": 0.049,
      "peak_hour": 10,
      "peak_concentration": 0.331,
      "dominant_violation": "WRONG PARKING",
      "dominant_vehicle": "CAR"
    },
    {
      "name": "BTP214 - 5th Main Chamrajpet  Junction",
      "rank": 42,
      "lat": 12.965009,
      "lon": 77.552553,
      "count": 252,
      "cis": 15.0,
      "main_road_frac": 0.27,
      "heavy_vehicle_ratio": 0.036,
      "peak_hour": 11,
      "peak_concentration": 0.46,
      "dominant_violation": "WRONG PARKING",
      "dominant_vehicle": "SCOOTER"
    },
    {
      "name": "BTP144 - Commando Hospital Junction",
      "rank": 43,
      "lat": 12.969204,
      "lon": 77.626344,
      "count": 6,
      "cis": 15.0,
      "main_road_frac": 0.0,
      "heavy_vehicle_ratio": 0.0,
      "peak_hour": 4,
      "peak_concentration": 1.0,
      "dominant_violation": "NO PARKING",
      "dominant_vehicle": "CAR"
    },
    {
      "name": "BTP078 - NR Square Junction",
      "rank": 44,
      "lat": 12.965873,
      "lon": 77.585407,
      "count": 244,
      "cis": 14.3,
      "main_road_frac": 0.012,
      "heavy_vehicle_ratio": 0.246,
      "peak_hour": 10,
      "peak_concentration": 0.566,
      "dominant_violation": "WRONG PARKING",
      "dominant_vehicle": "SCOOTER"
    },
    {
      "name": "BTP167 - JC Road Junction",
      "rank": 45,
      "lat": 12.958271,
      "lon": 77.581262,
      "count": 372,
      "cis": 14.2,
      "main_road_frac": 0.07,
      "heavy_vehicle_ratio": 0.196,
      "peak_hour": 8,
      "peak_concentration": 0.503,
      "dominant_violation": "WRONG PARKING",
      "dominant_vehicle": "SCOOTER"
    },
    {
      "name": "BTP070 - Cholurpalya Junction, Magadi Road",
      "rank": 46,
      "lat": 12.973484,
      "lon": 77.550806,
      "count": 2272,
      "cis": 13.9,
      "main_road_frac": 0.016,
      "heavy_vehicle_ratio": 0.008,
      "peak_hour": 11,
      "peak_concentration": 0.501,
      "dominant_violation": "NO PARKING",
      "dominant_vehicle": "SCOOTER"
    },
    {
      "name": "BTP133 - Adugodi Junction",
      "rank": 47,
      "lat": 12.941854,
      "lon": 77.608607,
      "count": 73,
      "cis": 13.9,
      "main_road_frac": 0.164,
      "heavy_vehicle_ratio": 0.068,
      "peak_hour": 3,
      "peak_concentration": 0.548,
      "dominant_violation": "NO PARKING",
      "dominant_vehicle": "CAR"
    },
    {
      "name": "BTP203 - RRMR Junction",
      "rank": 48,
      "lat": 12.967439,
      "lon": 77.5936,
      "count": 130,
      "cis": 13.7,
      "main_road_frac": 0.169,
      "heavy_vehicle_ratio": 0.108,
      "peak_hour": 23,
      "peak_concentration": 0.469,
      "dominant_violation": "NO PARKING",
      "dominant_vehicle": "CAR"
    },
    {
      "name": "BTP042 - Minsk Square Junction (CTO)",
      "rank": 49,
      "lat": 12.981176,
      "lon": 77.598457,
      "count": 2044,
      "cis": 13.6,
      "main_road_frac": 0.005,
      "heavy_vehicle_ratio": 0.001,
      "peak_hour": 4,
      "peak_concentration": 0.542,
      "dominant_violation": "WRONG PARKING",
      "dominant_vehicle": "SCOOTER"
    },
    {
      "name": "BTP077 - Halasuru Gate Junction",
      "rank": 50,
      "lat": 12.966807,
      "lon": 77.587036,
      "count": 30,
      "cis": 13.6,
      "main_road_frac": 0.0,
      "heavy_vehicle_ratio": 0.3,
      "peak_hour": 8,
      "peak_concentration": 0.5,
      "dominant_violation": "WRONG PARKING",
      "dominant_vehicle": "CAR"
    }
  ],
  "stations": [
    {
      "name": "Upparpet",
      "rank": 1,
      "lat": 12.976666,
      "lon": 77.577388,
      "count": 34468,
      "cis": 46.6,
      "main_road_frac": 0.021,
      "heavy_vehicle_ratio": 0.04,
      "peak_hour": 9,
      "num_junctions": 12
    },
    {
      "name": "Shivajinagar",
      "rank": 2,
      "lat": 12.982142,
      "lon": 77.607041,
      "count": 28044,
      "cis": 40.5,
      "main_road_frac": 0.037,
      "heavy_vehicle_ratio": 0.015,
      "peak_hour": 10,
      "num_junctions": 6
    },
    {
      "name": "HAL Old Airport",
      "rank": 3,
      "lat": 12.943423,
      "lon": 77.696756,
      "count": 20819,
      "cis": 37.6,
      "main_road_frac": 0.308,
      "heavy_vehicle_ratio": 0.02,
      "peak_hour": 4,
      "num_junctions": 1
    },
    {
      "name": "Malleshwaram",
      "rank": 4,
      "lat": 13.005484,
      "lon": 77.559836,
      "count": 22200,
      "cis": 32.0,
      "main_road_frac": 0.012,
      "heavy_vehicle_ratio": 0.011,
      "peak_hour": 10,
      "num_junctions": 8
    },
    {
      "name": "City Market",
      "rank": 5,
      "lat": 12.964505,
      "lon": 77.577126,
      "count": 17646,
      "cis": 28.0,
      "main_road_frac": 0.034,
      "heavy_vehicle_ratio": 0.123,
      "peak_hour": 9,
      "num_junctions": 16
    },
    {
      "name": "Vijayanagara",
      "rank": 6,
      "lat": 12.977795,
      "lon": 77.542829,
      "count": 14652,
      "cis": 23.1,
      "main_road_frac": 0.031,
      "heavy_vehicle_ratio": 0.012,
      "peak_hour": 10,
      "num_junctions": 19
    },
    {
      "name": "Mahadevapura",
      "rank": 7,
      "lat": 12.993506,
      "lon": 77.694738,
      "count": 6187,
      "cis": 22.2,
      "main_road_frac": 0.401,
      "heavy_vehicle_ratio": 0.029,
      "peak_hour": 11,
      "num_junctions": 1
    },
    {
      "name": "Rajajinagar",
      "rank": 8,
      "lat": 12.998552,
      "lon": 77.548612,
      "count": 10998,
      "cis": 21.3,
      "main_road_frac": 0.07,
      "heavy_vehicle_ratio": 0.066,
      "peak_hour": 3,
      "num_junctions": 19
    },
    {
      "name": "K.R. Pura",
      "rank": 9,
      "lat": 13.010588,
      "lon": 77.69773,
      "count": 6546,
      "cis": 20.9,
      "main_road_frac": 0.255,
      "heavy_vehicle_ratio": 0.069,
      "peak_hour": 0,
      "num_junctions": 1
    },
    {
      "name": "Kodigehalli",
      "rank": 10,
      "lat": 13.060296,
      "lon": 77.586265,
      "count": 10916,
      "cis": 20.3,
      "main_road_frac": 0.022,
      "heavy_vehicle_ratio": 0.02,
      "peak_hour": 11,
      "num_junctions": 1
    },
    {
      "name": "Whitefield",
      "rank": 11,
      "lat": 12.95755,
      "lon": 77.731438,
      "count": 2303,
      "cis": 18.7,
      "main_road_frac": 0.404,
      "heavy_vehicle_ratio": 0.059,
      "peak_hour": 10,
      "num_junctions": 1
    },
    {
      "name": "Chamarajpet",
      "rank": 12,
      "lat": 12.970224,
      "lon": 77.570951,
      "count": 3795,
      "cis": 17.7,
      "main_road_frac": 0.234,
      "heavy_vehicle_ratio": 0.168,
      "peak_hour": 7,
      "num_junctions": 12
    },
    {
      "name": "Jeevanbheemanagar",
      "rank": 13,
      "lat": 12.968354,
      "lon": 77.647019,
      "count": 6736,
      "cis": 17.7,
      "main_road_frac": 0.191,
      "heavy_vehicle_ratio": 0.019,
      "peak_hour": 7,
      "num_junctions": 3
    },
    {
      "name": "Magadi Road",
      "rank": 14,
      "lat": 12.974909,
      "lon": 77.553651,
      "count": 8558,
      "cis": 17.6,
      "main_road_frac": 0.051,
      "heavy_vehicle_ratio": 0.042,
      "peak_hour": 11,
      "num_junctions": 18
    },
    {
      "name": "Chikkajala",
      "rank": 15,
      "lat": 13.182778,
      "lon": 77.671074,
      "count": 5834,
      "cis": 17.3,
      "main_road_frac": 0.244,
      "heavy_vehicle_ratio": 0.012,
      "peak_hour": 4,
      "num_junctions": 1
    },
    {
      "name": "K.S. Layout",
      "rank": 16,
      "lat": 12.905895,
      "lon": 77.55562,
      "count": 828,
      "cis": 17.0,
      "main_road_frac": 0.327,
      "heavy_vehicle_ratio": 0.056,
      "peak_hour": 12,
      "num_junctions": 6
    },
    {
      "name": "Byatarayanapura",
      "rank": 17,
      "lat": 12.952648,
      "lon": 77.531878,
      "count": 4555,
      "cis": 16.3,
      "main_road_frac": 0.173,
      "heavy_vehicle_ratio": 0.062,
      "peak_hour": 12,
      "num_junctions": 7
    },
    {
      "name": "Halasuru Gate",
      "rank": 18,
      "lat": 12.965627,
      "lon": 77.58384,
      "count": 6294,
      "cis": 16.2,
      "main_road_frac": 0.034,
      "heavy_vehicle_ratio": 0.116,
      "peak_hour": 10,
      "num_junctions": 19
    },
    {
      "name": "Electronic City",
      "rank": 19,
      "lat": 12.848747,
      "lon": 77.656297,
      "count": 4333,
      "cis": 16.1,
      "main_road_frac": 0.103,
      "heavy_vehicle_ratio": 0.076,
      "peak_hour": 12,
      "num_junctions": 1
    },
    {
      "name": "K.G. Halli",
      "rank": 20,
      "lat": 13.029464,
      "lon": 77.622457,
      "count": 892,
      "cis": 15.9,
      "main_road_frac": 0.058,
      "heavy_vehicle_ratio": 0.275,
      "peak_hour": 3,
      "num_junctions": 1
    },
    {
      "name": "Banaswadi",
      "rank": 21,
      "lat": 12.999252,
      "lon": 77.662775,
      "count": 3759,
      "cis": 15.8,
      "main_road_frac": 0.281,
      "heavy_vehicle_ratio": 0.024,
      "peak_hour": 7,
      "num_junctions": 1
    },
    {
      "name": "Yeshwanthpura",
      "rank": 22,
      "lat": 13.026972,
      "lon": 77.546351,
      "count": 2587,
      "cis": 14.5,
      "main_road_frac": 0.229,
      "heavy_vehicle_ratio": 0.082,
      "peak_hour": 10,
      "num_junctions": 1
    },
    {
      "name": "HSR Layout",
      "rank": 23,
      "lat": 12.909352,
      "lon": 77.636665,
      "count": 5018,
      "cis": 14.3,
      "main_road_frac": 0.02,
      "heavy_vehicle_ratio": 0.089,
      "peak_hour": 11,
      "num_junctions": 1
    },
    {
      "name": "Mico Layout",
      "rank": 24,
      "lat": 12.921046,
      "lon": 77.605853,
      "count": 2588,
      "cis": 14.2,
      "main_road_frac": 0.204,
      "heavy_vehicle_ratio": 0.041,
      "peak_hour": 11,
      "num_junctions": 11
    },
    {
      "name": "Kengeri",
      "rank": 25,
      "lat": 12.92015,
      "lon": 77.498584,
      "count": 464,
      "cis": 14.1,
      "main_road_frac": 0.233,
      "heavy_vehicle_ratio": 0.062,
      "peak_hour": 11,
      "num_junctions": 1
    },
    {
      "name": "No Police Station",
      "rank": 26,
      "lat": 13.012575,
      "lon": 77.539058,
      "count": 339,
      "cis": 13.8,
      "main_road_frac": 0.15,
      "heavy_vehicle_ratio": 0.212,
      "peak_hour": 12,
      "num_junctions": 7
    },
    {
      "name": "Halasur",
      "rank": 27,
      "lat": 12.972901,
      "lon": 77.621195,
      "count": 4011,
      "cis": 13.8,
      "main_road_frac": 0.095,
      "heavy_vehicle_ratio": 0.023,
      "peak_hour": 4,
      "num_junctions": 6
    },
    {
      "name": "Jalahalli",
      "rank": 28,
      "lat": 13.052361,
      "lon": 77.540288,
      "count": 1160,
      "cis": 12.5,
      "main_road_frac": 0.116,
      "heavy_vehicle_ratio": 0.041,
      "peak_hour": 11,
      "num_junctions": 1
    },
    {
      "name": "Bellandur",
      "rank": 29,
      "lat": 12.918128,
      "lon": 77.679137,
      "count": 4964,
      "cis": 12.4,
      "main_road_frac": 0.056,
      "heavy_vehicle_ratio": 0.035,
      "peak_hour": 4,
      "num_junctions": 1
    },
    {
      "name": "Thalagattapura",
      "rank": 30,
      "lat": 12.878696,
      "lon": 77.553621,
      "count": 870,
      "cis": 12.3,
      "main_road_frac": 0.079,
      "heavy_vehicle_ratio": 0.061,
      "peak_hour": 11,
      "num_junctions": 1
    },
    {
      "name": "Pulikeshinagar(F.Town)",
      "rank": 31,
      "lat": 12.99572,
      "lon": 77.613647,
      "count": 4136,
      "cis": 12.3,
      "main_road_frac": 0.025,
      "heavy_vehicle_ratio": 0.032,
      "peak_hour": 3,
      "num_junctions": 1
    },
    {
      "name": "High ground",
      "rank": 32,
      "lat": 12.990155,
      "lon": 77.5874,
      "count": 4951,
      "cis": 12.3,
      "main_road_frac": 0.014,
      "heavy_vehicle_ratio": 0.014,
      "peak_hour": 4,
      "num_junctions": 11
    },
    {
      "name": "Hulimavu",
      "rank": 33,
      "lat": 12.882442,
      "lon": 77.626295,
      "count": 2395,
      "cis": 12.3,
      "main_road_frac": 0.002,
      "heavy_vehicle_ratio": 0.104,
      "peak_hour": 2,
      "num_junctions": 1
    },
    {
      "name": "Jnanabharathi",
      "rank": 34,
      "lat": 12.961941,
      "lon": 77.508099,
      "count": 1063,
      "cis": 12.1,
      "main_road_frac": 0.113,
      "heavy_vehicle_ratio": 0.064,
      "peak_hour": 11,
      "num_junctions": 1
    },
    {
      "name": "Peenya",
      "rank": 35,
      "lat": 13.037112,
      "lon": 77.511948,
      "count": 974,
      "cis": 12.0,
      "main_road_frac": 0.123,
      "heavy_vehicle_ratio": 0.079,
      "peak_hour": 11,
      "num_junctions": 1
    },
    {
      "name": "Jayanagara",
      "rank": 36,
      "lat": 12.925811,
      "lon": 77.583474,
      "count": 3813,
      "cis": 12.0,
      "main_road_frac": 0.101,
      "heavy_vehicle_ratio": 0.014,
      "peak_hour": 8,
      "num_junctions": 22
    },
    {
      "name": "Madiwala",
      "rank": 37,
      "lat": 12.917977,
      "lon": 77.622477,
      "count": 1563,
      "cis": 11.8,
      "main_road_frac": 0.161,
      "heavy_vehicle_ratio": 0.063,
      "peak_hour": 1,
      "num_junctions": 6
    },
    {
      "name": "Ashok Nagar",
      "rank": 38,
      "lat": 12.96541,
      "lon": 77.604517,
      "count": 3524,
      "cis": 11.6,
      "main_road_frac": 0.054,
      "heavy_vehicle_ratio": 0.02,
      "peak_hour": 4,
      "num_junctions": 11
    },
    {
      "name": "Chikkabanavara",
      "rank": 39,
      "lat": 13.051061,
      "lon": 77.504246,
      "count": 785,
      "cis": 11.2,
      "main_road_frac": 0.116,
      "heavy_vehicle_ratio": 0.096,
      "peak_hour": 11,
      "num_junctions": 1
    },
    {
      "name": "Sheshadripuram",
      "rank": 40,
      "lat": 12.991062,
      "lon": 77.572993,
      "count": 3090,
      "cis": 10.6,
      "main_road_frac": 0.039,
      "heavy_vehicle_ratio": 0.03,
      "peak_hour": 10,
      "num_junctions": 5
    },
    {
      "name": "Kamakshipalya",
      "rank": 41,
      "lat": 12.989753,
      "lon": 77.510952,
      "count": 1431,
      "cis": 10.6,
      "main_road_frac": 0.064,
      "heavy_vehicle_ratio": 0.051,
      "peak_hour": 11,
      "num_junctions": 2
    },
    {
      "name": "Yelahanka",
      "rank": 42,
      "lat": 13.100761,
      "lon": 77.596251,
      "count": 2440,
      "cis": 10.5,
      "main_road_frac": 0.038,
      "heavy_vehicle_ratio": 0.055,
      "peak_hour": 2,
      "num_junctions": 1
    },
    {
      "name": "Basavanagudi",
      "rank": 43,
      "lat": 12.943183,
      "lon": 77.571116,
      "count": 3604,
      "cis": 10.4,
      "main_road_frac": 0.035,
      "heavy_vehicle_ratio": 0.022,
      "peak_hour": 10,
      "num_junctions": 13
    },
    {
      "name": "Banashankari",
      "rank": 44,
      "lat": 12.926987,
      "lon": 77.554125,
      "count": 1202,
      "cis": 10.1,
      "main_road_frac": 0.07,
      "heavy_vehicle_ratio": 0.042,
      "peak_hour": 11,
      "num_junctions": 10
    },
    {
      "name": "Cubbon Park",
      "rank": 45,
      "lat": 12.975297,
      "lon": 77.595935,
      "count": 3255,
      "cis": 9.9,
      "main_road_frac": 0.059,
      "heavy_vehicle_ratio": 0.005,
      "peak_hour": 11,
      "num_junctions": 19
    },
    {
      "name": "Hennuru",
      "rank": 46,
      "lat": 13.058006,
      "lon": 77.63714,
      "count": 892,
      "cis": 9.9,
      "main_road_frac": 0.136,
      "heavy_vehicle_ratio": 0.047,
      "peak_hour": 13,
      "num_junctions": 1
    },
    {
      "name": "Adugodi",
      "rank": 47,
      "lat": 12.934974,
      "lon": 77.620823,
      "count": 3332,
      "cis": 9.8,
      "main_road_frac": 0.066,
      "heavy_vehicle_ratio": 0.019,
      "peak_hour": 11,
      "num_junctions": 10
    },
    {
      "name": "J.P. Nagar",
      "rank": 48,
      "lat": 12.904673,
      "lon": 77.587726,
      "count": 1637,
      "cis": 9.7,
      "main_road_frac": 0.057,
      "heavy_vehicle_ratio": 0.079,
      "peak_hour": 3,
      "num_junctions": 17
    },
    {
      "name": "Sadashivanagar",
      "rank": 49,
      "lat": 13.020608,
      "lon": 77.575601,
      "count": 1445,
      "cis": 9.7,
      "main_road_frac": 0.087,
      "heavy_vehicle_ratio": 0.022,
      "peak_hour": 11,
      "num_junctions": 2
    },
    {
      "name": "Wilson Garden",
      "rank": 50,
      "lat": 12.946863,
      "lon": 77.588993,
      "count": 3108,
      "cis": 9.4,
      "main_road_frac": 0.021,
      "heavy_vehicle_ratio": 0.034,
      "peak_hour": 8,
      "num_junctions": 17
    },
    {
      "name": "Hebbala",
      "rank": 51,
      "lat": 13.039055,
      "lon": 77.590043,
      "count": 3209,
      "cis": 9.1,
      "main_road_frac": 0.008,
      "heavy_vehicle_ratio": 0.017,
      "peak_hour": 4,
      "num_junctions": 1
    },
    {
      "name": "Devanahalli Airport",
      "rank": 52,
      "lat": 13.199344,
      "lon": 77.687761,
      "count": 940,
      "cis": 8.6,
      "main_road_frac": 0.03,
      "heavy_vehicle_ratio": 0.026,
      "peak_hour": 4,
      "num_junctions": 1
    },
    {
      "name": "R.T. Nagar",
      "rank": 53,
      "lat": 13.017528,
      "lon": 77.591373,
      "count": 1736,
      "cis": 8.2,
      "main_road_frac": 0.023,
      "heavy_vehicle_ratio": 0.047,
      "peak_hour": 11,
      "num_junctions": 2
    },
    {
      "name": "V.V.Puram (C.Pet)",
      "rank": 54,
      "lat": 12.958913,
      "lon": 77.574913,
      "count": 1556,
      "cis": 7.6,
      "main_road_frac": 0.04,
      "heavy_vehicle_ratio": 0.079,
      "peak_hour": 10,
      "num_junctions": 16
    }
  ],
  "formula": "CIS = 0.40\u00d7density + 0.25\u00d7main_road_frac + 0.20\u00d7heavy_vehicle + 0.15\u00d7peak_concentration"
}